{
  "0": {
	"sportFacilityId": "0",
    "name": "Flex",
    "type": "GYM",
    "facilityContent": ["Individualni treniznizi", "Grupni treninzi"],
    "isWorking": true,
  	"location": {
	      "street": "Bulevar Cara Lazara",
	      "number": "11",
	      "city": "Novi Sad",
	      "postalCode": "2100",
	      "latitude": "45.244369",
	      "longitude": "19.844643"
    },
    "averageGrade": 4.4,
    "openTime": {
      "hour": 4,
      "minute": 0,
      "second": 0,
      "nano": 0
    },
    "closeTime": {
      "hour": 22,
      "minute": 0,
      "second": 0,
      "nano": 0
    }
  },
  "1": {
	"sportFacilityId": "1",
    "name": "Classic",
    "type": "GYM",
    "facilityContent": ["Individualni treniznizi", "Grupni treninzi"],
    "isWorking": true,
    "location": {
	      "street": "Lasla Gala",
	      "number": "19",
	      "city": "Novi Sad",
	      "postalCode": "2100",
	      "latitude": "45.245845",
	      "longitude": "19.837517"
    },
    "averageGrade": 3.44,
     "openTime": {
      "hour": 4,
      "minute": 0,
      "second": 0,
      "nano": 0
    },
    "closeTime": {
      "hour": 22,
      "minute": 0,
      "second": 0,
      "nano": 0
    }
  },
  "2": {
	"sportFacilityId": "2",
    "name": "Gladiator",
    "type": "GYM",
    "facilityContent": ["Individualni treniznizi", "Grupni treninzi"],
    "isWorking": true,
    "location": {
	      "street": "Fruskogorska",
	      "number": "19",
	      "city": "Novi Sad",
	      "postalCode": "2100",
	      "latitude": "45.242673",
	      "longitude": "19.847785"
    },
    "averageGrade": 3.44,
      "openTime": {
      "hour": 4,
      "minute": 0,
      "second": 0,
      "nano": 0
    },
    "closeTime": {
      "hour": 22,
      "minute": 0,
      "second": 0,
      "nano": 0
    }

  },
  "3": {
	"sportFacilityId": "3",
    "name": "Synergy",
    "type": "GYM",
    "facilityContent": ["Individualni treniznizi", "Grupni treninzi"],
    "isWorking": true,
 	"location": {
	      "street": "Veselina Maslese",
	      "number": "70",
	      "city": "Novi Sad",
	      "postalCode": "21000",
	      "latitude": "45.259949",
	      "longitude": "19.809746"
    },   
     "averageGrade": 3.4,
      "openTime": {
      "hour": 4,
      "minute": 0,
      "second": 0,
      "nano": 0
    },
    "closeTime": {
      "hour": 22,
      "minute": 0,
      "second": 0,
      "nano": 0
    }

  },
  "4": {
	"sportFacilityId": "4",
    "name": "Atlantida",
    "type": "POOL",
    "facilityContent": ["Individualni treniznizi", "Grupni treninzi"],
    "isWorking": false,
     "location": {
	      "street": "Gogoljeva",
	      "number": "11",
	      "city": "Novi Sad",
	      "postalCode": "21000",
	      "latitude": "45.245801",
	      "longitude": "19.835518"
    },
    "averageGrade": 3.4,
    "openTime": {
      "hour": 4,
      "minute": 0,
      "second": 0,
      "nano": 0
    },
    "closeTime": {
      "hour": 22,
      "minute": 0,
      "second": 0,
      "nano": 0
    }

  },
  "5": {
	"sportFacilityId": "5",
    "name": "Talicni tom",
    "type": "SHOOTINGRANGE",
    "facilityContent": ["Individualni treniznizi", "Grupni treninzi"],
    "isWorking": true,
   	"location": {
      "street": "Nehrunova",
      "number": "50",
      "city": "Beograd",
      "postalCode": " 11070",
      "latitude": "44.815067",
      "longitude": "20.460474"
    },
    "averageGrade": 3.4,
     "openTime": {
      "hour": 4,
      "minute": 0,
      "second": 0,
      "nano": 0
    },
    "closeTime": {
      "hour": 22,
      "minute": 0,
      "second": 0,
      "nano": 0
    }

  }

}